{
  "type": "FeatureCollection",
  "features": [
 {
   "type": "Feature",
   "geometry": {
      "type": "Point",
      "coordinates":  { }
   },
   "properties": {
   "Folder":"Rutas_3",
   "Name":"Ruta 1_3",
   "Shift":"",
   "Address":"Avd. Real Zaragoza nº 29",
   "City":"Zaragoza",
   "Province":"Zaragoza, Espana",
   "Comment":"nº 29 - Pd. Bus",
   "Ida/vuelta":"Ida",
   "Hora1":"04:43",
   "Hora2":"12:40",
   "Hora3":"20:43",
   "Hora4":"06:40"
   }
 },
 {
   "type": "Feature",
   "geometry": {
      "type": "Point",
      "coordinates":  { }
   },
   "properties": {
   "Folder":"Rutas_3",
   "Name":"Ruta 1_3",
   "Shift":"",
   "Address":"Avd. Santa Isabel  ",
   "City":"Zaragoza",
   "Province":"Zaragoza, Espana",
   "Comment":"Plaza Serrano Berges - Pd. Bus",
   "Ida/vuelta":"Ida",
   "Hora1":"04:44",
   "Hora2":"12:41",
   "Hora3":"20:44",
   "Hora4":"06:41"
   }
 },
 {
   "type": "Feature",
   "geometry": {
      "type": "Point",
      "coordinates":  { }
   },
   "properties": {
   "Folder":"Rutas_3",
   "Name":"Ruta 1_3",
   "Shift":"",
   "Address":"Avd. Santa Isabel  ",
   "City":"Zaragoza",
   "Province":"Zaragoza, Espana",
   "Comment":"Esq. Avd. Industria - Gasolinera - Pd. Bus",
   "Ida/vuelta":"Ida",
   "Hora1":"04:46",
   "Hora2":"12:43",
   "Hora3":"20:46",
   "Hora4":"06:43"
   }
 },
 {
   "type": "Feature",
   "geometry": {
      "type": "Point",
      "coordinates":  { }
   },
   "properties": {
   "Folder":"Rutas_3",
   "Name":"Ruta 1_3",
   "Shift":"",
   "Address":"Avd. Cataluna  ",
   "City":"Zaragoza",
   "Province":"Zaragoza, Espana",
   "Comment":"CAF - Pd. Bus (?)",
   "Ida/vuelta":"Ida",
   "Hora1":"04:48",
   "Hora2":"12:45",
   "Hora3":"20:48",
   "Hora4":"06:45"
   }
 },
 {
   "type": "Feature",
   "geometry": {
      "type": "Point",
      "coordinates":  { }
   },
   "properties": {
   "Folder":"Rutas_3",
   "Name":"Ruta 1_3",
   "Shift":"",
   "Address":"Avd. Cataluna nº 189 ",
   "City":"Zaragoza",
   "Province":"Zaragoza, Espana",
   "Comment":"Los Charros",
   "Ida/vuelta":"Ida",
   "Hora1":"04:50",
   "Hora2":"12:47",
   "Hora3":"20:50",
   "Hora4":"06:47"
   }
 },
 {
   "type": "Feature",
   "geometry": {
      "type": "Point",
      "coordinates":  { }
   },
   "properties": {
   "Folder":"Rutas_3",
   "Name":"Ruta 1_3",
   "Shift":"",
   "Address":"Avd. Cataluna  nº 103",
   "City":"Zaragoza",
   "Province":"Zaragoza, Espana",
   "Comment":"Frente Felisa Gale",
   "Ida/vuelta":"Ida",
   "Hora1":"04:52",
   "Hora2":"12:49",
   "Hora3":"20:52",
   "Hora4":"06:49"
   }
 },
 {
   "type": "Feature",
   "geometry": {
      "type": "Point",
      "coordinates":  { }
   },
   "properties": {
   "Folder":"Rutas_3",
   "Name":"Ruta 1_3",
   "Shift":"",
   "Address":"Marques de la Cadena ",
   "City":"Zaragoza",
   "Province":"Zaragoza, Espana",
   "Comment":"Frente nº 57 - Pd. Bus CAN",
   "Ida/vuelta":"Ida",
   "Hora1":"04:53",
   "Hora2":"12:51",
   "Hora3":"20:53",
   "Hora4":"06:51"
   }
 },
 {
   "type": "Feature",
   "geometry": {
      "type": "Point",
      "coordinates":  { }
   },
   "properties": {
   "Folder":"Rutas_3",
   "Name":"Ruta 1_3",
   "Shift":"",
   "Address":"Av. San Juan de la Pena nº 90",
   "City":"Zaragoza",
   "Province":"Zaragoza, Espana",
   "Comment":"Hierros Alfonso - Pd. Bus",
   "Ida/vuelta":"Ida",
   "Hora1":"04:54",
   "Hora2":"12:52",
   "Hora3":"20:54",
   "Hora4":"06:52"
   }
 },
 {
   "type": "Feature",
   "geometry": {
      "type": "Point",
      "coordinates":  { }
   },
   "properties": {
   "Folder":"Rutas_3",
   "Name":"Ruta 1_3",
   "Shift":"",
   "Address":"San Juan de la Pena nº 182 ",
   "City":"Zaragoza",
   "Province":"Zaragoza, Espana",
   "Comment":"Pd. Bus",
   "Ida/vuelta":"Ida",
   "Hora1":"04:55",
   "Hora2":"12:53",
   "Hora3":"20:55",
   "Hora4":"06:53"
   }
 },
 {
   "type": "Feature",
   "geometry": {
      "type": "Point",
      "coordinates":  { }
   },
   "properties": {
   "Folder":"Rutas_3",
   "Name":"Ruta 1_3",
   "Shift":"",
   "Address":"Salvador Allende nº 67 ",
   "City":"Zaragoza",
   "Province":"Zaragoza, Espana",
   "Comment":"Pd. Bus",
   "Ida/vuelta":"Ida",
   "Hora1":"04:56",
   "Hora2":"12:54",
   "Hora3":"20:56",
   "Hora4":"06:54"
   }
 },
 {
   "type": "Feature",
   "geometry": {
      "type": "Point",
      "coordinates":  { }
   },
   "properties": {
   "Folder":"Rutas_3",
   "Name":"Ruta 1_3",
   "Shift":"",
   "Address":"Salvador Allende  ",
   "City":"Zaragoza",
   "Province":"Zaragoza, Espana",
   "Comment":"Esq. Valle de Broto - Pd. Bus",
   "Ida/vuelta":"Ida",
   "Hora1":"04:57",
   "Hora2":"12:55",
   "Hora3":"20:57",
   "Hora4":"06:55"
   }
 },
 {
   "type": "Feature",
   "geometry": {
      "type": "Point",
      "coordinates":  { }
   },
   "properties": {
   "Folder":"Rutas_3",
   "Name":"Ruta 1_3",
   "Shift":"",
   "Address":"Maria Zambrano  ",
   "City":"Zaragoza",
   "Province":"Zaragoza, Espana",
   "Comment":"Leon Felipe - Pd. Bus",
   "Ida/vuelta":"Ida",
   "Hora1":"04:58",
   "Hora2":"12:56",
   "Hora3":"20:58",
   "Hora4":"06:56"
   }
 },
 {
   "type": "Feature",
   "geometry": {
      "type": "Point",
      "coordinates":  { }
   },
   "properties": {
   "Folder":"Rutas_3",
   "Name":"Ruta 1_3",
   "Shift":"",
   "Address":"Maria Zambrano  ",
   "City":"Zaragoza",
   "Province":"Zaragoza, Espana",
   "Comment":"Ildefonso Manuel Gil - Pd. Bus",
   "Ida/vuelta":"Ida",
   "Hora1":"04:59",
   "Hora2":"12:57",
   "Hora3":"20:59",
   "Hora4":"06:57"
   }
 },
 {
   "type": "Feature",
   "geometry": {
      "type": "Point",
      "coordinates":  { }
   },
   "properties": {
   "Folder":"Rutas_3",
   "Name":"Ruta 1_3",
   "Shift":"",
   "Address":"Maria Zambrano  ",
   "City":"Zaragoza",
   "Province":"Zaragoza, Espana",
   "Comment":"Esq. Pablo Iglesias - Pd. Bus",
   "Ida/vuelta":"Ida",
   "Hora1":"05:00",
   "Hora2":"12:58",
   "Hora3":"21:00",
   "Hora4":"06:58"
   }
 },
 {
   "type": "Feature",
   "geometry": {
      "type": "Point",
      "coordinates":  { }
   },
   "properties": {
   "Folder":"Rutas_3",
   "Name":"Ruta 1_3",
   "Shift":"",
   "Address":"Pol. Ind Entrerrios ",
   "City":"Figueruelas",
   "Province":"Zaragoza, Espana",
   "Comment":"Opel Puerta 5",
   "Ida/vuelta":"Ida",
   "Hora1":"05:30",
   "Hora2":"13:30",
   "Hora3":"21:30",
   "Hora4":"07:30"
   }
 },
 {
   "type": "Feature",
   "geometry": {
      "type": "Point",
      "coordinates":  { }
   },
   "properties": {
   "Folder":"Rutas_3",
   "Name":"Ruta 1_3",
   "Shift":"",
   "Address":"Pol. Ind Entrerrios ",
   "City":"Figueruelas",
   "Province":"Zaragoza, Espana",
   "Comment":"Opel Puerta 5",
   "Ida/vuelta":"Vuelta",
   "Hora1":"",
   "Hora2":"",
   "Hora3":"",
   "Hora4":""
   }
 },
 {
   "type": "Feature",
   "geometry": {
      "type": "Point",
      "coordinates":  { }
   },
   "properties": {
   "Folder":"Rutas_3",
   "Name":"Ruta 1_3",
   "Shift":"",
   "Address":"Luis Legaz  ",
   "City":"Zaragoza",
   "Province":"Zaragoza, Espana",
   "Comment":"Esq. Gomez Avellaneda",
   "Ida/vuelta":"Vuelta",
   "Hora1":"",
   "Hora2":"",
   "Hora3":"",
   "Hora4":""
   }
 },
 {
   "type": "Feature",
   "geometry": {
      "type": "Point",
      "coordinates":  { }
   },
   "properties": {
   "Folder":"Rutas_3",
   "Name":"Ruta 1_3",
   "Shift":"",
   "Address":"Gomez de Avellaneda  ",
   "City":"Zaragoza",
   "Province":"Zaragoza, Espana",
   "Comment":"Esq. Saiz de otero - Pd. Bus",
   "Ida/vuelta":"Vuelta",
   "Hora1":"",
   "Hora2":"",
   "Hora3":"",
   "Hora4":""
   }
 },
 {
   "type": "Feature",
   "geometry": {
      "type": "Point",
      "coordinates":  { }
   },
   "properties": {
   "Folder":"Rutas_3",
   "Name":"Ruta 1_3",
   "Shift":"",
   "Address":"Gomez Avellaneda nº 23 ",
   "City":"Zaragoza",
   "Province":"Zaragoza, Espana",
   "Comment":"Pd. Bus",
   "Ida/vuelta":"Vuelta",
   "Hora1":"",
   "Hora2":"",
   "Hora3":"",
   "Hora4":""
   }
 },
 {
   "type": "Feature",
   "geometry": {
      "type": "Point",
      "coordinates":  { }
   },
   "properties": {
   "Folder":"Rutas_3",
   "Name":"Ruta 1_3",
   "Shift":"",
   "Address":"Salvador Allende  ",
   "City":"Zaragoza",
   "Province":"Zaragoza, Espana",
   "Comment":"Esq. Valle de Broto - Pd. Bus",
   "Ida/vuelta":"Vuelta",
   "Hora1":"",
   "Hora2":"",
   "Hora3":"",
   "Hora4":""
   }
 },
 {
   "type": "Feature",
   "geometry": {
      "type": "Point",
      "coordinates":  { }
   },
   "properties": {
   "Folder":"Rutas_3",
   "Name":"Ruta 1_3",
   "Shift":"",
   "Address":"Salvador Allende  ",
   "City":"Zaragoza",
   "Province":"Zaragoza, Espana",
   "Comment":"Frente nº 67 - Pd. Bus",
   "Ida/vuelta":"Vuelta",
   "Hora1":"",
   "Hora2":"",
   "Hora3":"",
   "Hora4":""
   }
 },
 {
   "type": "Feature",
   "geometry": {
      "type": "Point",
      "coordinates":  { }
   },
   "properties": {
   "Folder":"Rutas_3",
   "Name":"Ruta 1_3",
   "Shift":"",
   "Address":"Av. San Juan de la Pena ",
   "City":"Zaragoza",
   "Province":"Zaragoza, Espana",
   "Comment":"Esq. Alcalde Caballero",
   "Ida/vuelta":"Vuelta",
   "Hora1":"",
   "Hora2":"",
   "Hora3":"",
   "Hora4":""
   }
 },
 {
   "type": "Feature",
   "geometry": {
      "type": "Point",
      "coordinates":  { }
   },
   "properties": {
   "Folder":"Rutas_3",
   "Name":"Ruta 1_3",
   "Shift":"",
   "Address":"Av. San Juan de la Pena ",
   "City":"Zaragoza",
   "Province":"Zaragoza, Espana",
   "Comment":"Frente Hierros Alfonso",
   "Ida/vuelta":"Vuelta",
   "Hora1":"",
   "Hora2":"",
   "Hora3":"",
   "Hora4":""
   }
 },
 {
   "type": "Feature",
   "geometry": {
      "type": "Point",
      "coordinates":  { }
   },
   "properties": {
   "Folder":"Rutas_3",
   "Name":"Ruta 1_3",
   "Shift":"",
   "Address":"Marques de la Cadena nº 57 ",
   "City":"Zaragoza",
   "Province":"Zaragoza, Espana",
   "Comment":"Plaza Mozart - Pd. Bus (?)",
   "Ida/vuelta":"Vuelta",
   "Hora1":"",
   "Hora2":"",
   "Hora3":"",
   "Hora4":""
   }
 },
 {
   "type": "Feature",
   "geometry": {
      "type": "Point",
      "coordinates":  { }
   },
   "properties": {
   "Folder":"Rutas_3",
   "Name":"Ruta 1_3",
   "Shift":"",
   "Address":"Avd. Cataluna  ",
   "City":"Zaragoza",
   "Province":"Zaragoza, Espana",
   "Comment":"Esq. Felisa Gale",
   "Ida/vuelta":"Vuelta",
   "Hora1":"",
   "Hora2":"",
   "Hora3":"",
   "Hora4":""
   }
 },
 {
   "type": "Feature",
   "geometry": {
      "type": "Point",
      "coordinates":  { }
   },
   "properties": {
   "Folder":"Rutas_3",
   "Name":"Ruta 1_3",
   "Shift":"",
   "Address":"Avd. Cataluna  ",
   "City":"Zaragoza",
   "Province":"Zaragoza, Espana",
   "Comment":"Frente nº 189 - Los Charros",
   "Ida/vuelta":"Vuelta",
   "Hora1":"",
   "Hora2":"",
   "Hora3":"",
   "Hora4":""
   }
 },
 {
   "type": "Feature",
   "geometry": {
      "type": "Point",
      "coordinates":  { }
   },
   "properties": {
   "Folder":"Rutas_3",
   "Name":"Ruta 1_3",
   "Shift":"",
   "Address":"Avd. Cataluna ",
   "City":"Zaragoza",
   "Province":"Zaragoza, Espana",
   "Comment":"Frente CAF (?)",
   "Ida/vuelta":"Vuelta",
   "Hora1":"",
   "Hora2":"",
   "Hora3":"",
   "Hora4":""
   }
 },
 {
   "type": "Feature",
   "geometry": {
      "type": "Point",
      "coordinates":  { }
   },
   "properties": {
   "Folder":"Rutas_3",
   "Name":"Ruta 1_3",
   "Shift":"",
   "Address":"Avd. Santa Isabel  ",
   "City":"Zaragoza",
   "Province":"Zaragoza, Espana",
   "Comment":"Frente Avd. Industria",
   "Ida/vuelta":"Vuelta",
   "Hora1":"",
   "Hora2":"",
   "Hora3":"",
   "Hora4":""
   }
 },
 {
   "type": "Feature",
   "geometry": {
      "type": "Point",
      "coordinates":  { }
   },
   "properties": {
   "Folder":"Rutas_3",
   "Name":"Ruta 1_3",
   "Shift":"",
   "Address":"Avd. Santa Isabel  ",
   "City":"Zaragoza",
   "Province":"Zaragoza, Espana",
   "Comment":"Frente Plaza Serrano Berges - Pd. Bus",
   "Ida/vuelta":"Vuelta",
   "Hora1":"",
   "Hora2":"",
   "Hora3":"",
   "Hora4":""
   }
 },
 {
   "type": "Feature",
   "geometry": {
      "type": "Point",
      "coordinates":  { }
   },
   "properties": {
   "Folder":"Rutas_3",
   "Name":"Ruta 1_3",
   "Shift":"",
   "Address":"Avd. Real Zaragoza  ",
   "City":"Zaragoza",
   "Province":"Zaragoza, Espana",
   "Comment":"Frente nº 29 - Pd. Bus",
   "Ida/vuelta":"Vuelta",
   "Hora1":"",
   "Hora2":"",
   "Hora3":"",
   "Hora4":""
   }
 },
 {
   "type": "Feature",
   "geometry": {
      "type": "Point",
      "coordinates":  { }
   },
   "properties": {
   "Folder":"Rutas_3",
   "Name":"Ruta 2_3",
   "Shift":"",
   "Address":"Violante de Hungria nº 7",
   "City":"Zaragoza",
   "Province":"Zaragoza, Espana",
   "Comment":"",
   "Ida/vuelta":"Ida",
   "Hora1":"04:48",
   "Hora2":"12:46",
   "Hora3":"20:48",
   "Hora4":"06:48"
   }
 },
 {
   "type": "Feature",
   "geometry": {
      "type": "Point",
      "coordinates":  { }
   },
   "properties": {
   "Folder":"Rutas_3",
   "Name":"Ruta 2_3",
   "Shift":"",
   "Address":"Pedro Cerbuna nº 9",
   "City":"Zaragoza",
   "Province":"Zaragoza, Espana",
   "Comment":"Pd. Bus",
   "Ida/vuelta":"Ida",
   "Hora1":"04:50",
   "Hora2":"12:48",
   "Hora3":"20:50",
   "Hora4":"06:50"
   }
 },
 {
   "type": "Feature",
   "geometry": {
      "type": "Point",
      "coordinates":  { }
   },
   "properties": {
   "Folder":"Rutas_3",
   "Name":"Ruta 2_3",
   "Shift":"",
   "Address":"Avenida Goya nº 66 ",
   "City":"Zaragoza",
   "Province":"Zaragoza, Espana",
   "Comment":"Pd. Bus",
   "Ida/vuelta":"Ida",
   "Hora1":"04:52",
   "Hora2":"12:50",
   "Hora3":"20:52",
   "Hora4":"06:52"
   }
 },
 {
   "type": "Feature",
   "geometry": {
      "type": "Point",
      "coordinates":  { }
   },
   "properties": {
   "Folder":"Rutas_3",
   "Name":"Ruta 2_3",
   "Shift":"",
   "Address":"Plaza Roma  ",
   "City":"Zaragoza",
   "Province":"Zaragoza, Espana",
   "Comment":"Mercadona",
   "Ida/vuelta":"Ida",
   "Hora1":"04:55",
   "Hora2":"12:53",
   "Hora3":"20:55",
   "Hora4":"06:55"
   }
 },
 {
   "type": "Feature",
   "geometry": {
      "type": "Point",
      "coordinates":  { }
   },
   "properties": {
   "Folder":"Rutas_3",
   "Name":"Ruta 2_3",
   "Shift":"",
   "Address":"Puerta Sancho nº 11 ",
   "City":"Zaragoza",
   "Province":"Zaragoza, Espana",
   "Comment":"Esq. Bruselas - Edif. D. Quijote",
   "Ida/vuelta":"Ida",
   "Hora1":"05:02",
   "Hora2":"13:00",
   "Hora3":"21:02",
   "Hora4":"07:02"
   }
 },
 {
   "type": "Feature",
   "geometry": {
      "type": "Point",
      "coordinates":  { }
   },
   "properties": {
   "Folder":"Rutas_3",
   "Name":"Ruta 2_3",
   "Shift":"",
   "Address":"Avd. de Navarra nº 60 ",
   "City":"Zaragoza",
   "Province":"Zaragoza, Espana",
   "Comment":"Centro Cultural - Pd. Bus",
   "Ida/vuelta":"Ida",
   "Hora1":"05:06",
   "Hora2":"13:04",
   "Hora3":"21:06",
   "Hora4":"07:06"
   }
 },
 {
   "type": "Feature",
   "geometry": {
      "type": "Point",
      "coordinates":  { }
   },
   "properties": {
   "Folder":"Rutas_3",
   "Name":"Ruta 2_3",
   "Shift":"",
   "Address":"Avd. de Navarra ",
   "City":"Zaragoza",
   "Province":"Zaragoza, Espana",
   "Comment":"Frente nº 183 - Pd. Bus ",
   "Ida/vuelta":"Ida",
   "Hora1":"05:07",
   "Hora2":"13:05",
   "Hora3":"21:07",
   "Hora4":"07:07"
   }
 },
 {
   "type": "Feature",
   "geometry": {
      "type": "Point",
      "coordinates":  { }
   },
   "properties": {
   "Folder":"Rutas_3",
   "Name":"Ruta 2_3",
   "Shift":"",
   "Address":"\"Torres San Lamberto \"\"Punto 0\"\"  \"",
   "City":"Zaragoza",
   "Province":"Zaragoza, Espana",
   "Comment":"Pd. Bus",
   "Ida/vuelta":"Ida",
   "Hora1":"05:10",
   "Hora2":"13:10",
   "Hora3":"21:10",
   "Hora4":"07:10"
   }
 },
 {
   "type": "Feature",
   "geometry": {
      "type": "Point",
      "coordinates":  { }
   },
   "properties": {
   "Folder":"Rutas_3",
   "Name":"Ruta 2_3",
   "Shift":"",
   "Address":"Ctra. Logrono ",
   "City":"Monzalbarba ",
   "Province":"Zaragoza, Espana",
   "Comment":"Desvio Monzalbarba - Pd. Bus (?)",
   "Ida/vuelta":"Ida",
   "Hora1":"05:14",
   "Hora2":"13:14",
   "Hora3":"21:14",
   "Hora4":"07:14"
   }
 },
 {
   "type": "Feature",
   "geometry": {
      "type": "Point",
      "coordinates":  { }
   },
   "properties": {
   "Folder":"Rutas_3",
   "Name":"Ruta 2_3",
   "Shift":"",
   "Address":"Ctra. Logrono ",
   "City":"Utebo ",
   "Province":"Zaragoza, Espana",
   "Comment":"Desvio Utebo - Pd. Bus (?)",
   "Ida/vuelta":"Ida",
   "Hora1":"05:17",
   "Hora2":"13:17",
   "Hora3":"21:17",
   "Hora4":"07:17"
   }
 },
 {
   "type": "Feature",
   "geometry": {
      "type": "Point",
      "coordinates":  { }
   },
   "properties": {
   "Folder":"Rutas_3",
   "Name":"Ruta 2_3",
   "Shift":"",
   "Address":"Calle Canteras  ",
   "City":"Casetas",
   "Province":"Zaragoza, Espana",
   "Comment":"Pd. Bus",
   "Ida/vuelta":"Ida",
   "Hora1":"05:18",
   "Hora2":"13:18",
   "Hora3":"21:18",
   "Hora4":"07:18"
   }
 },
 {
   "type": "Feature",
   "geometry": {
      "type": "Point",
      "coordinates":  { }
   },
   "properties": {
   "Folder":"Rutas_3",
   "Name":"Ruta 2_3",
   "Shift":"",
   "Address":"Avenida de Logrono  nº 76",
   "City":"Casetas",
   "Province":"Zaragoza, Espana",
   "Comment":"Cuartel - Pd. Bus",
   "Ida/vuelta":"Ida",
   "Hora1":"05:19",
   "Hora2":"13:19",
   "Hora3":"21:19",
   "Hora4":"07:19"
   }
 },
 {
   "type": "Feature",
   "geometry": {
      "type": "Point",
      "coordinates":  { }
   },
   "properties": {
   "Folder":"Rutas_3",
   "Name":"Ruta 2_3",
   "Shift":"",
   "Address":"Urbanizacion Alameda ",
   "City":"Casetas",
   "Province":"Zaragoza, Espana",
   "Comment":"",
   "Ida/vuelta":"Ida",
   "Hora1":"05:20",
   "Hora2":"13:20",
   "Hora3":"21:20",
   "Hora4":"07:20"
   }
 },
 {
   "type": "Feature",
   "geometry": {
      "type": "Point",
      "coordinates":  { }
   },
   "properties": {
   "Folder":"Rutas_3",
   "Name":"Ruta 2_3",
   "Shift":"",
   "Address":"Alagon  ",
   "City":"Alagon ",
   "Province":"Zaragoza, Espana",
   "Comment":"Rotonda - Pd. Bus",
   "Ida/vuelta":"Ida",
   "Hora1":"05:25",
   "Hora2":"13:25",
   "Hora3":"21:25",
   "Hora4":"07:25"
   }
 },
 {
   "type": "Feature",
   "geometry": {
      "type": "Point",
      "coordinates":  { }
   },
   "properties": {
   "Folder":"Rutas_3",
   "Name":"Ruta 2_3",
   "Shift":"",
   "Address":"Pol. Ind Entrerrios ",
   "City":"Figueruelas",
   "Province":"Zaragoza, Espana",
   "Comment":"Opel Puerta 5",
   "Ida/vuelta":"Ida",
   "Hora1":"05:30",
   "Hora2":"13:30",
   "Hora3":"21:30",
   "Hora4":"07:30"
   }
 },
 {
   "type": "Feature",
   "geometry": {
      "type": "Point",
      "coordinates":  { }
   },
   "properties": {
   "Folder":"Rutas_3",
   "Name":"Ruta 2_3",
   "Shift":"",
   "Address":"Pol. Ind Entrerrios ",
   "City":"Figueruelas",
   "Province":"Zaragoza, Espana",
   "Comment":"Opel Puerta 5",
   "Ida/vuelta":"Vuelta",
   "Hora1":"",
   "Hora2":"",
   "Hora3":"",
   "Hora4":""
   }
 },
 {
   "type": "Feature",
   "geometry": {
      "type": "Point",
      "coordinates":  { }
   },
   "properties": {
   "Folder":"Rutas_3",
   "Name":"Ruta 2_3",
   "Shift":"",
   "Address":"Alagon  ",
   "City":"Alagon ",
   "Province":"Zaragoza, Espana",
   "Comment":"Rotonda - Pd. Bus",
   "Ida/vuelta":"Vuelta",
   "Hora1":"",
   "Hora2":"",
   "Hora3":"",
   "Hora4":""
   }
 },
 {
   "type": "Feature",
   "geometry": {
      "type": "Point",
      "coordinates":  { }
   },
   "properties": {
   "Folder":"Rutas_3",
   "Name":"Ruta 2_3",
   "Shift":"",
   "Address":"Urbanizacion Alameda ",
   "City":"Casetas",
   "Province":"Zaragoza, Espana",
   "Comment":"Frente Urbanizacion Alameda",
   "Ida/vuelta":"Vuelta",
   "Hora1":"",
   "Hora2":"",
   "Hora3":"",
   "Hora4":""
   }
 },
 {
   "type": "Feature",
   "geometry": {
      "type": "Point",
      "coordinates":  { }
   },
   "properties": {
   "Folder":"Rutas_3",
   "Name":"Ruta 2_3",
   "Shift":"",
   "Address":"Ctra. Logrono  ",
   "City":"Casetas",
   "Province":"Zaragoza, Espana",
   "Comment":"Frente nº 52",
   "Ida/vuelta":"Vuelta",
   "Hora1":"",
   "Hora2":"",
   "Hora3":"",
   "Hora4":""
   }
 },
 {
   "type": "Feature",
   "geometry": {
      "type": "Point",
      "coordinates":  { }
   },
   "properties": {
   "Folder":"Rutas_3",
   "Name":"Ruta 2_3",
   "Shift":"",
   "Address":"Frente Calle Canteras ",
   "City":"Casetas",
   "Province":"Zaragoza, Espana",
   "Comment":"(?)",
   "Ida/vuelta":"Vuelta",
   "Hora1":"",
   "Hora2":"",
   "Hora3":"",
   "Hora4":""
   }
 },
 {
   "type": "Feature",
   "geometry": {
      "type": "Point",
      "coordinates":  { }
   },
   "properties": {
   "Folder":"Rutas_3",
   "Name":"Ruta 2_3",
   "Shift":"",
   "Address":"Ctra. Logrono ",
   "City":"Utebo ",
   "Province":"Zaragoza, Espana",
   "Comment":"Desvio Utebo - Pd. Bus (?)",
   "Ida/vuelta":"Vuelta",
   "Hora1":"",
   "Hora2":"",
   "Hora3":"",
   "Hora4":""
   }
 },
 {
   "type": "Feature",
   "geometry": {
      "type": "Point",
      "coordinates":  { }
   },
   "properties": {
   "Folder":"Rutas_3",
   "Name":"Ruta 2_3",
   "Shift":"",
   "Address":"Ctra. Logrono ",
   "City":"Monzalbarba ",
   "Province":"Zaragoza, Espana",
   "Comment":"Desvio Monzalbarba - Pd. Bus (?)",
   "Ida/vuelta":"Vuelta",
   "Hora1":"",
   "Hora2":"",
   "Hora3":"",
   "Hora4":""
   }
 },
 {
   "type": "Feature",
   "geometry": {
      "type": "Point",
      "coordinates":  { }
   },
   "properties": {
   "Folder":"Rutas_3",
   "Name":"Ruta 2_3",
   "Shift":"",
   "Address":"\"Torres San Lamberto \"\"Punto 0\"\"  \"",
   "City":"Zaragoza",
   "Province":"Zaragoza, Espana",
   "Comment":"Pd. Bus",
   "Ida/vuelta":"Vuelta",
   "Hora1":"",
   "Hora2":"",
   "Hora3":"",
   "Hora4":""
   }
 },
 {
   "type": "Feature",
   "geometry": {
      "type": "Point",
      "coordinates":  { }
   },
   "properties": {
   "Folder":"Rutas_3",
   "Name":"Ruta 2_3",
   "Shift":"",
   "Address":"Avd. de Navarra nº 183 ",
   "City":"Zaragoza",
   "Province":"Zaragoza, Espana",
   "Comment":"Pd. Bus",
   "Ida/vuelta":"Vuelta",
   "Hora1":"",
   "Hora2":"",
   "Hora3":"",
   "Hora4":""
   }
 },
 {
   "type": "Feature",
   "geometry": {
      "type": "Point",
      "coordinates":  { }
   },
   "properties": {
   "Folder":"Rutas_3",
   "Name":"Ruta 2_3",
   "Shift":"",
   "Address":"Rioja  ",
   "City":"Zaragoza",
   "Province":"Zaragoza, Espana",
   "Comment":"Rotonda Frente estacion del AVE",
   "Ida/vuelta":"Vuelta",
   "Hora1":"",
   "Hora2":"",
   "Hora3":"",
   "Hora4":""
   }
 },
 {
   "type": "Feature",
   "geometry": {
      "type": "Point",
      "coordinates":  { }
   },
   "properties": {
   "Folder":"Rutas_3",
   "Name":"Ruta 2_3",
   "Shift":"",
   "Address":"Avd. Pablo Gargallo  ",
   "City":"Zaragoza",
   "Province":"Zaragoza, Espana",
   "Comment":"Esq. Puerta Sancho",
   "Ida/vuelta":"Vuelta",
   "Hora1":"",
   "Hora2":"",
   "Hora3":"",
   "Hora4":""
   }
 },
 {
   "type": "Feature",
   "geometry": {
      "type": "Point",
      "coordinates":  { }
   },
   "properties": {
   "Folder":"Rutas_3",
   "Name":"Ruta 2_3",
   "Shift":"",
   "Address":"Plaza Roma  ",
   "City":"Zaragoza",
   "Province":"Zaragoza, Espana",
   "Comment":"Esq. Escusura",
   "Ida/vuelta":"Vuelta",
   "Hora1":"",
   "Hora2":"",
   "Hora3":"",
   "Hora4":""
   }
 },
 {
   "type": "Feature",
   "geometry": {
      "type": "Point",
      "coordinates":  { }
   },
   "properties": {
   "Folder":"Rutas_3",
   "Name":"Ruta 2_3",
   "Shift":"",
   "Address":"Avd. Goya  ",
   "City":"Zaragoza",
   "Province":"Zaragoza, Espana",
   "Comment":"Esq. Baltasar Gracian",
   "Ida/vuelta":"Vuelta",
   "Hora1":"",
   "Hora2":"",
   "Hora3":"",
   "Hora4":""
   }
 },
 {
   "type": "Feature",
   "geometry": {
      "type": "Point",
      "coordinates":  { }
   },
   "properties": {
   "Folder":"Rutas_3",
   "Name":"Ruta 2_3",
   "Shift":"",
   "Address":"Plaza San Francisco  ",
   "City":"Zaragoza",
   "Province":"Zaragoza, Espana",
   "Comment":"Kiosco Prensa - Pd. Bus",
   "Ida/vuelta":"Vuelta",
   "Hora1":"",
   "Hora2":"",
   "Hora3":"",
   "Hora4":""
   }
 },
 {
   "type": "Feature",
   "geometry": {
      "type": "Point",
      "coordinates":  { }
   },
   "properties": {
   "Folder":"Rutas_3",
   "Name":"Ruta 2_3",
   "Shift":"",
   "Address":"Violante de Hungria  ",
   "City":"Zaragoza",
   "Province":"Zaragoza, Espana",
   "Comment":"Frente nº 7 - Pd. Bus",
   "Ida/vuelta":"Vuelta",
   "Hora1":"",
   "Hora2":"",
   "Hora3":"",
   "Hora4":""
   }
 },
 {
   "type": "Feature",
   "geometry": {
      "type": "Point",
      "coordinates":  { }
   },
   "properties": {
   "Folder":"Rutas_3",
   "Name":"Ruta 3_3",
   "Shift":"",
   "Address":"Via Hispanidad  ",
   "City":"Zaragoza",
   "Province":"Zaragoza, Espana",
   "Comment":"Frente nº 132 - 2º paso de cebra",
   "Ida/vuelta":"Ida",
   "Hora1":"04:45",
   "Hora2":"12:42",
   "Hora3":"20:42",
   "Hora4":"06:45"
   }
 },
 {
   "type": "Feature",
   "geometry": {
      "type": "Point",
      "coordinates":  { }
   },
   "properties": {
   "Folder":"Rutas_3",
   "Name":"Ruta 3_3",
   "Shift":"",
   "Address":"Via Hispanidad  ",
   "City":"Zaragoza",
   "Province":"Zaragoza, Espana",
   "Comment":"Frente Escultor Palao - Pd. Bus",
   "Ida/vuelta":"Ida",
   "Hora1":"04:46",
   "Hora2":"12:43",
   "Hora3":"20:43",
   "Hora4":"06:46"
   }
 },
 {
   "type": "Feature",
   "geometry": {
      "type": "Point",
      "coordinates":  { }
   },
   "properties": {
   "Folder":"Rutas_3",
   "Name":"Ruta 3_3",
   "Shift":"",
   "Address":"Via Hispanidad  ",
   "City":"Zaragoza",
   "Province":"Zaragoza, Espana",
   "Comment":"Frente Villa de Andorra - Pd. Bus",
   "Ida/vuelta":"Ida",
   "Hora1":"04:47",
   "Hora2":"12:44",
   "Hora3":"20:44",
   "Hora4":"06:47"
   }
 },
 {
   "type": "Feature",
   "geometry": {
      "type": "Point",
      "coordinates":  { }
   },
   "properties": {
   "Folder":"Rutas_3",
   "Name":"Ruta 3_3",
   "Shift":"",
   "Address":"Via Hispanidad  ",
   "City":"Zaragoza",
   "Province":"Zaragoza, Espana",
   "Comment":"Esq. Gomez Laguna - Pd. Bus",
   "Ida/vuelta":"Ida",
   "Hora1":"04:48",
   "Hora2":"12:45",
   "Hora3":"20:45",
   "Hora4":"06:48"
   }
 },
 {
   "type": "Feature",
   "geometry": {
      "type": "Point",
      "coordinates":  { }
   },
   "properties": {
   "Folder":"Rutas_3",
   "Name":"Ruta 3_3",
   "Shift":"",
   "Address":"Via Hispanidad  ",
   "City":"Zaragoza",
   "Province":"Zaragoza, Espana",
   "Comment":"Frente Avd. Sainz de Varanda",
   "Ida/vuelta":"Ida",
   "Hora1":"04:49",
   "Hora2":"12:46",
   "Hora3":"20:46",
   "Hora4":"06:49"
   }
 },
 {
   "type": "Feature",
   "geometry": {
      "type": "Point",
      "coordinates":  { }
   },
   "properties": {
   "Folder":"Rutas_3",
   "Name":"Ruta 3_3",
   "Shift":"",
   "Address":"Via Hispanidad  ",
   "City":"Zaragoza",
   "Province":"Zaragoza, Espana",
   "Comment":"Gas. Casablanca - Esq. La Via",
   "Ida/vuelta":"Ida",
   "Hora1":"04:50",
   "Hora2":"12:47",
   "Hora3":"20:47",
   "Hora4":"06:50"
   }
 },
 {
   "type": "Feature",
   "geometry": {
      "type": "Point",
      "coordinates":  { }
   },
   "properties": {
   "Folder":"Rutas_3",
   "Name":"Ruta 3_3",
   "Shift":"",
   "Address":"Avd. America nº 11 ",
   "City":"Zaragoza",
   "Province":"Zaragoza, Espana",
   "Comment":"Frente Plaza Canteras - Pd. Bus",
   "Ida/vuelta":"Ida",
   "Hora1":"04:52",
   "Hora2":"12:49",
   "Hora3":"20:49",
   "Hora4":"06:52"
   }
 },
 {
   "type": "Feature",
   "geometry": {
      "type": "Point",
      "coordinates":  { }
   },
   "properties": {
   "Folder":"Rutas_3",
   "Name":"Ruta 3_3",
   "Shift":"",
   "Address":"Avd. San Jose  ",
   "City":"Zaragoza",
   "Province":"Zaragoza, Espana",
   "Comment":"Esq. Bellavista - Pd. Bus",
   "Ida/vuelta":"Ida",
   "Hora1":"04:55",
   "Hora2":"12:52",
   "Hora3":"20:52",
   "Hora4":"06:55"
   }
 },
 {
   "type": "Feature",
   "geometry": {
      "type": "Point",
      "coordinates":  { }
   },
   "properties": {
   "Folder":"Rutas_3",
   "Name":"Ruta 3_3",
   "Shift":"",
   "Address":"Avd. San Jose nº 97 ",
   "City":"Zaragoza",
   "Province":"Zaragoza, Espana",
   "Comment":"Pd. Bus",
   "Ida/vuelta":"Ida",
   "Hora1":"04:56",
   "Hora2":"12:53",
   "Hora3":"20:53",
   "Hora4":"06:56"
   }
 },
 {
   "type": "Feature",
   "geometry": {
      "type": "Point",
      "coordinates":  { }
   },
   "properties": {
   "Folder":"Rutas_3",
   "Name":"Ruta 3_3",
   "Shift":"",
   "Address":"Avd. San Jose nº 3 ",
   "City":"Zaragoza",
   "Province":"Zaragoza, Espana",
   "Comment":"Esq. Miguel Servet - Pd. Bus",
   "Ida/vuelta":"Ida",
   "Hora1":"04:57",
   "Hora2":"12:54",
   "Hora3":"20:54",
   "Hora4":"06:57"
   }
 },
 {
   "type": "Feature",
   "geometry": {
      "type": "Point",
      "coordinates":  { }
   },
   "properties": {
   "Folder":"Rutas_3",
   "Name":"Ruta 3_3",
   "Shift":"",
   "Address":"Compromiso de Caspe nº 48",
   "City":"Zaragoza",
   "Province":"Zaragoza, Espana",
   "Comment":"Esq. Doctor Iranzo - Pd. Bus ",
   "Ida/vuelta":"Ida",
   "Hora1":"04:58",
   "Hora2":"12:55",
   "Hora3":"20:55",
   "Hora4":"06:58"
   }
 },
 {
   "type": "Feature",
   "geometry": {
      "type": "Point",
      "coordinates":  { }
   },
   "properties": {
   "Folder":"Rutas_3",
   "Name":"Ruta 3_3",
   "Shift":"",
   "Address":"Compromiso de Caspe nº 76",
   "City":"Zaragoza",
   "Province":"Zaragoza, Espana",
   "Comment":"Pd. Bus",
   "Ida/vuelta":"Ida",
   "Hora1":"05:00",
   "Hora2":"12:57",
   "Hora3":"20:57",
   "Hora4":"07:00"
   }
 },
 {
   "type": "Feature",
   "geometry": {
      "type": "Point",
      "coordinates":  { }
   },
   "properties": {
   "Folder":"Rutas_3",
   "Name":"Ruta 3_3",
   "Shift":"",
   "Address":"Pol. Ind Entrerrios ",
   "City":"Figueruelas",
   "Province":"Zaragoza, Espana",
   "Comment":"Opel Puerta 5",
   "Ida/vuelta":"Ida",
   "Hora1":"05:30",
   "Hora2":"13:30",
   "Hora3":"21:30",
   "Hora4":"07:30"
   }
 },
 {
   "type": "Feature",
   "geometry": {
      "type": "Point",
      "coordinates":  { }
   },
   "properties": {
   "Folder":"Rutas_3",
   "Name":"Ruta 3_3",
   "Shift":"",
   "Address":"Pol. Ind Entrerrios ",
   "City":"Figueruelas",
   "Province":"Zaragoza, Espana",
   "Comment":"Opel Puerta 5",
   "Ida/vuelta":"Vuelta",
   "Hora1":"",
   "Hora2":"",
   "Hora3":"",
   "Hora4":""
   }
 },
 {
   "type": "Feature",
   "geometry": {
      "type": "Point",
      "coordinates":  { }
   },
   "properties": {
   "Folder":"Rutas_3",
   "Name":"Ruta 3_3",
   "Shift":"",
   "Address":"Via Hispanidad  ",
   "City":"Zaragoza",
   "Province":"Zaragoza, Espana",
   "Comment":"Frente nº 132 - 2º paso de cebra",
   "Ida/vuelta":"Vuelta",
   "Hora1":"",
   "Hora2":"",
   "Hora3":"",
   "Hora4":""
   }
 },
 {
   "type": "Feature",
   "geometry": {
      "type": "Point",
      "coordinates":  { }
   },
   "properties": {
   "Folder":"Rutas_3",
   "Name":"Ruta 3_3",
   "Shift":"",
   "Address":"Via Hispanidad  ",
   "City":"Zaragoza",
   "Province":"Zaragoza, Espana",
   "Comment":"Frente Escultor Palao - Pd. Bus",
   "Ida/vuelta":"Vuelta",
   "Hora1":"",
   "Hora2":"",
   "Hora3":"",
   "Hora4":""
   }
 },
 {
   "type": "Feature",
   "geometry": {
      "type": "Point",
      "coordinates":  { }
   },
   "properties": {
   "Folder":"Rutas_3",
   "Name":"Ruta 3_3",
   "Shift":"",
   "Address":"Via Hispanidad  ",
   "City":"Zaragoza",
   "Province":"Zaragoza, Espana",
   "Comment":"Frente Villa de Andorra - Pd. Bus",
   "Ida/vuelta":"Vuelta",
   "Hora1":"",
   "Hora2":"",
   "Hora3":"",
   "Hora4":""
   }
 },
 {
   "type": "Feature",
   "geometry": {
      "type": "Point",
      "coordinates":  { }
   },
   "properties": {
   "Folder":"Rutas_3",
   "Name":"Ruta 3_3",
   "Shift":"",
   "Address":"Via Hispanidad  ",
   "City":"Zaragoza",
   "Province":"Zaragoza, Espana",
   "Comment":"Esq. Gomez Laguna - Pd. Bus",
   "Ida/vuelta":"Vuelta",
   "Hora1":"",
   "Hora2":"",
   "Hora3":"",
   "Hora4":""
   }
 },
 {
   "type": "Feature",
   "geometry": {
      "type": "Point",
      "coordinates":  { }
   },
   "properties": {
   "Folder":"Rutas_3",
   "Name":"Ruta 3_3",
   "Shift":"",
   "Address":"Via Hispanidad  ",
   "City":"Zaragoza",
   "Province":"Zaragoza, Espana",
   "Comment":"Frente Avd. Sainz de Varanda",
   "Ida/vuelta":"Vuelta",
   "Hora1":"",
   "Hora2":"",
   "Hora3":"",
   "Hora4":""
   }
 },
 {
   "type": "Feature",
   "geometry": {
      "type": "Point",
      "coordinates":  { }
   },
   "properties": {
   "Folder":"Rutas_3",
   "Name":"Ruta 3_3",
   "Shift":"",
   "Address":"Via Hispanidad  ",
   "City":"Zaragoza",
   "Province":"Zaragoza, Espana",
   "Comment":"Gas. Casablanca - Esq. La Via",
   "Ida/vuelta":"Vuelta",
   "Hora1":"",
   "Hora2":"",
   "Hora3":"",
   "Hora4":""
   }
 },
 {
   "type": "Feature",
   "geometry": {
      "type": "Point",
      "coordinates":  { }
   },
   "properties": {
   "Folder":"Rutas_3",
   "Name":"Ruta 3_3",
   "Shift":"",
   "Address":"Avd. America nº 11 ",
   "City":"Zaragoza",
   "Province":"Zaragoza, Espana",
   "Comment":"Frente Plaza Canteras - Pd. Bus",
   "Ida/vuelta":"Vuelta",
   "Hora1":"",
   "Hora2":"",
   "Hora3":"",
   "Hora4":""
   }
 },
 {
   "type": "Feature",
   "geometry": {
      "type": "Point",
      "coordinates":  { }
   },
   "properties": {
   "Folder":"Rutas_3",
   "Name":"Ruta 3_3",
   "Shift":"",
   "Address":"Avd. San Jose  ",
   "City":"Zaragoza",
   "Province":"Zaragoza, Espana",
   "Comment":"Esq. Bellavista - Pd. Bus",
   "Ida/vuelta":"Vuelta",
   "Hora1":"",
   "Hora2":"",
   "Hora3":"",
   "Hora4":""
   }
 },
 {
   "type": "Feature",
   "geometry": {
      "type": "Point",
      "coordinates":  { }
   },
   "properties": {
   "Folder":"Rutas_3",
   "Name":"Ruta 3_3",
   "Shift":"",
   "Address":"Avd. San Jose nº 97 ",
   "City":"Zaragoza",
   "Province":"Zaragoza, Espana",
   "Comment":"Pd. Bus",
   "Ida/vuelta":"Vuelta",
   "Hora1":"",
   "Hora2":"",
   "Hora3":"",
   "Hora4":""
   }
 },
 {
   "type": "Feature",
   "geometry": {
      "type": "Point",
      "coordinates":  { }
   },
   "properties": {
   "Folder":"Rutas_3",
   "Name":"Ruta 3_3",
   "Shift":"",
   "Address":"Avd. San Jose nº 3 ",
   "City":"Zaragoza",
   "Province":"Zaragoza, Espana",
   "Comment":"Esq. Miguel Servet - Pd. Bus",
   "Ida/vuelta":"Vuelta",
   "Hora1":"",
   "Hora2":"",
   "Hora3":"",
   "Hora4":""
   }
 },
 {
   "type": "Feature",
   "geometry": {
      "type": "Point",
      "coordinates":  { }
   },
   "properties": {
   "Folder":"Rutas_3",
   "Name":"Ruta 3_3",
   "Shift":"",
   "Address":"Compromiso de Caspe nº 48",
   "City":"Zaragoza",
   "Province":"Zaragoza, Espana",
   "Comment":"Esq. Doctor Iranzo - Pd. Bus ",
   "Ida/vuelta":"Vuelta",
   "Hora1":"",
   "Hora2":"",
   "Hora3":"",
   "Hora4":""
   }
 },
 {
   "type": "Feature",
   "geometry": {
      "type": "Point",
      "coordinates":  { }
   },
   "properties": {
   "Folder":"Rutas_3",
   "Name":"Ruta 3_3",
   "Shift":"",
   "Address":"Compromiso de Caspe nº 76 ",
   "City":"Zaragoza",
   "Province":"Zaragoza, Espana",
   "Comment":"Pd. Bus",
   "Ida/vuelta":"Vuelta",
   "Hora1":"",
   "Hora2":"",
   "Hora3":"",
   "Hora4":""
   }
 }
]
}
